{"1":{"id":"5","name":"1-877 SCUBA USA","agency_type":"5 Star Professional Development Center","website":"www.1877scubausa.com","primary_email":"phil@scubalearningcenter.com","longitude":"-74.073036","latitude":"40.954090","address_1":"480 Route 17 North","address_2":"2nd Floor Rear","city_text":"Paramus","state":"New Jersey","country":"United States","post_code":"07652","phone_number":"201-261-8700","zIndex":99,"action":null},"2":{"id":"4585","name":"Aguas Claras","agency_type":"5 Star Professional Development Center","website":"www.aguasclaras-fn.com.br","primary_email":"jorge@aguasclaras-fn.com.br","longitude":"-32.427814","latitude":"-3.847938","address_1":"Alameda do Boldro, s\/n - Vila do Boldro","address_2":"","city_text":"Fernando de Noronha","state":"Pernambuco","country":"Brazil","post_code":"53990-000","phone_number":"+55 81 3619-1225","zIndex":98,"action":null},"3":{"id":"3737","name":"Air Hogs Scuba","agency_type":"5 Star Professional Development Center","website":"www.airhogsscuba.com","primary_email":"info@airhogsscuba.com","longitude":"-78.562988","latitude":"35.609039","address_1":"21 Anna Drive","address_2":"Suite 101","city_text":"Clayton","state":"North Carolina","country":"United States","post_code":"27520","phone_number":"919-747-9021","zIndex":97,"action":null},"4":{"id":"222","name":"Apple Dive Center","agency_type":"5 Star Professional Development Center","website":"www.appledivers.com","primary_email":"appledive@gmail.com","longitude":"48.018398","latitude":"29.314953","address_1":"KING FAHAD STREET ","address_2":"","city_text":"Kuwait City","state":"Kuwait","country":"Kuwait","post_code":"72461","phone_number":"+96566616321","zIndex":96,"action":null},"5":{"id":"301","name":"Aquatech Scuba Academy","agency_type":"5 Star Professional Development Center","website":"www.diveaquatech.com","primary_email":"daniel.burgaud@gmail.com","longitude":"120.883324","latitude":"13.726389","address_1":"Aquatech \/ AquaReef Club, Bagalangit,","address_2":"Mabini, Batangas","city_text":"Mabini","state":"Batangas","country":"Philippines","post_code":"4232","phone_number":"+63-9274279310","zIndex":95,"action":null},"6":{"id":"337","name":"AquaWorld - Cancun","agency_type":"5 Star Professional Development Center","website":"www.aquaworld.com.mx","primary_email":"arojas@aquaworld.com.mx","longitude":"-86.758652","latitude":"21.134731","address_1":"Boulevard Kukulcan KM 15.2","address_2":"Zona Hotelera","city_text":"Cancun","state":"Quintana Roo","country":"Mexico","post_code":"77500","phone_number":"998 8488326","zIndex":94,"action":null},"7":{"id":"470","name":"Bermuda Triangle, SC","agency_type":"5 Star Professional Development Center","website":"www.scubagreenville.com","primary_email":"reese@scubagreenville.com","longitude":"-82.299881","latitude":"34.857510","address_1":"3620 Pelham Road","address_2":"Suite 6","city_text":"Greenville","state":"South Carolina","country":"United States","post_code":"29615","phone_number":"864 286 3483","zIndex":93,"action":null},"8":{"id":"527","name":"Blue Stone Dive Resort","agency_type":"5 Star Professional Development Center","website":"www.bluedolphindiveshop.com","primary_email":"janetatbluedol@aol.com","longitude":"-80.118034","latitude":"35.794930","address_1":"3179  Cunningham Road","address_2":"","city_text":"Thomasville","state":"North Carolina","country":"United States","post_code":"27360","phone_number":"336-474-0674","zIndex":92,"action":null},"9":{"id":"4576","name":"Cave Excursions","agency_type":"5 Star Professional Development Center","website":"www.caveexcursions.com","primary_email":"peter@stuartscuba.com","longitude":"-83.170021","latitude":"30.119228","address_1":"20338 108th Trce","address_2":"","city_text":"Live Oak","state":"Florida","country":"United States","post_code":"32060","phone_number":"218-213-8175","zIndex":91,"action":null},"10":{"id":"811","name":"Dayo Scuba","agency_type":"5 Star Professional Development Center","website":"www.dayo.com","primary_email":"info@dayo.com","longitude":"-81.368965","latitude":"28.605007","address_1":"723 Executive Drive","address_2":"","city_text":"Winter Park","state":"Florida","country":"United States","post_code":"32789","phone_number":"407-292-9727","zIndex":90,"action":null},"11":{"id":"1007","name":"Dive Right In Scuba, Inc","agency_type":"5 Star Professional Development Center","website":"www.diverightinscuba.com","primary_email":"Mike@diverightinscuba.com","longitude":"-88.208374","latitude":"41.608654","address_1":"24222 W Lockport St","address_2":"","city_text":"Plainfield","state":"Illinois","country":"United States","post_code":"60544","phone_number":"815 267 8400","zIndex":89,"action":null},"12":{"id":"3751","name":"Divers Supply - Charlotte","agency_type":"5 Star Professional Development Center","website":"www.diverssupplycharlotte.com","primary_email":"ACCOUNTING@DIVERS-SUPPLY.COM","longitude":"-80.799019","latitude":"35.117348","address_1":"8700 Pineville-Matthews Rd. Suite 800","address_2":"","city_text":"Charlotte","state":"North Carolina","country":"United States","post_code":"28226","phone_number":"704-525-0045","zIndex":88,"action":null},"13":{"id":"3750","name":"Divers Supply - Jacksonville","agency_type":"5 Star Professional Development Center","website":"www.divers-supply.com\/","primary_email":"ACCOUNTING@DIVERS-SUPPLY.COM","longitude":"-81.525513","latitude":"30.309969","address_1":"2225 St. John Bluff Rd South","address_2":"","city_text":"Jacksonville","state":"Florida","country":"United States","post_code":"32246","phone_number":"904-646-3828","zIndex":87,"action":null},"14":{"id":"1117","name":"Divers Supply - Macon","agency_type":"5 Star Professional Development Center","website":"www.divers-supply.com","primary_email":"ACCOUNTING@DIVERS-SUPPLY.COM","longitude":"-83.731499","latitude":"32.831581","address_1":"5208 Mercer University Drive","address_2":"","city_text":"Macon","state":"Georgia","country":"United States","post_code":"31210","phone_number":"478 474-6790","zIndex":86,"action":null},"15":{"id":"3749","name":"Divers Supply - Marietta","agency_type":"5 Star Professional Development Center","website":"www.divers-supply.com\/marietta\/","primary_email":"ACCOUNTING@DIVERS-SUPPLY.COM","longitude":"-84.510376","latitude":"33.929153","address_1":"950 Cobb Pkwy S. Suite 160","address_2":"","city_text":"Marietta","state":"Georgia","country":"United States","post_code":"30060-6562","phone_number":"770-419-1976","zIndex":85,"action":null},"16":{"id":"4195","name":"Divezone.mx","agency_type":"5 Star Professional Development Center","website":"Divezone.com.mx","primary_email":"danielgc@hotmail.com","longitude":"-86.851524","latitude":"21.161907","address_1":"Calle Helecho Mz 5 Lt 9 SM 525","address_2":"Santa Fe Plus","city_text":"Cancun","state":"Quintana Roo","country":"Mexico","post_code":"77533","phone_number":"011 52 9982152897","zIndex":84,"action":null},"17":{"id":"1164","name":"DJ's Scuba Locker Inc.","agency_type":"5 Star Professional Development Center","website":"www.djscuba.com","primary_email":"sales@djscuba.com","longitude":"-87.817757","latitude":"41.820358","address_1":"9301 W. Ogden Avenue","address_2":"","city_text":"Brookfield","state":"Illinois","country":"United States","post_code":"60513","phone_number":"708 442 4388","zIndex":83,"action":null},"18":{"id":"4886","name":"Ecological Divers Tenerife","agency_type":"5 Star Professional Development Center","website":"www.ecological-divers.com","primary_email":"info@ecological-divers.com","longitude":"-16.594641","latitude":"28.030167","address_1":"C\/ LA MAREA 5","address_2":"","city_text":"Los Abrigos","state":"Tenerife South","country":"Spain","post_code":"38618","phone_number":"+34922524798","zIndex":82,"action":null},"19":{"id":"1539","name":"Hoodsport 'n Dive","agency_type":"5 Star Professional Development Center","website":"www.hoodsportndive.com","primary_email":"diveservice@aol.com","longitude":"-123.141899","latitude":"47.403084","address_1":"24080 N. US HWY 101","address_2":"","city_text":"Hoodsport","state":"Washington","country":"United States","post_code":"98548","phone_number":"360-877-6818","zIndex":81,"action":null},"20":{"id":"1705","name":"Lake County Divers Supply","agency_type":"5 Star Professional Development Center","website":"www.lcdivers.com","primary_email":"lakecountydiverssupply@gmail.com","longitude":"-87.249748","latitude":"41.521763","address_1":"305 Main Street (Route 51)","address_2":"","city_text":"Hobart","state":"Indiana","country":"United States","post_code":"46342","phone_number":"219-942-0016","zIndex":80,"action":null},"21":{"id":"2037","name":"New River Dive Center","agency_type":"5 Star Professional Development Center","website":"www.newriverdive.com","primary_email":"info@newriverdive.com","longitude":"-77.417625","latitude":"34.748817","address_1":"919 Lejeune Blvd","address_2":"","city_text":"Jacksonville","state":"North Carolina","country":"United States","post_code":"28540","phone_number":"910-346-9500","zIndex":79,"action":null},"22":{"id":"4791","name":"Orlando Scuba Partners LLC","agency_type":"5 Star Professional Development Center","website":"orlandoscubapartners.com","primary_email":"peter@stuartscuba.com","longitude":"-81.207954","latitude":"28.626472","address_1":"3050 Alafaya Tr.","address_2":"","city_text":"Orlando","state":"Florida","country":"United States","post_code":"32765","phone_number":"321-228-0835","zIndex":78,"action":null},"23":{"id":"4003","name":"Posadas Buceo","agency_type":"5 Star Professional Development Center","website":"www.posadasbuceo.com","primary_email":"tdisdi@posadasbuceo.com","longitude":"-55.905952","latitude":"-27.399481","address_1":"Av. Francisco De Haro 5688 ","address_2":"","city_text":"Posadas","state":"Misiones","country":"Argentina","post_code":"N3300 NOR","phone_number":"+54 376 4458058","zIndex":77,"action":null},"24":{"id":"4480","name":"Proditech - Professional Diving Technology","agency_type":"5 Star Professional Development Center","website":"WWW.PRODITECH.ES","primary_email":"proditech@proditech.es","longitude":"-5.663252","latitude":"43.541100","address_1":"C\/ DE LOS MOROS 17 1\u00c2\u00ba ","address_2":"","city_text":"Gijon","state":"Asturias","country":"Spain","post_code":"33206","phone_number":"609 47 29 78","zIndex":76,"action":null},"25":{"id":"2784","name":"SDI\/TDI\/ERDI Headquarters","agency_type":"5 Star Professional Development Center","website":"www.tdisdi.com","primary_email":"worldhq@tdisdi.com","longitude":"-80.242386","latitude":"27.185852","address_1":"1321 SE Decker Ave","address_2":"","city_text":"Stuart","state":"Florida","country":"United States","post_code":"34994","phone_number":"888-778-9073","zIndex":75,"action":null},"26":{"id":"4465","name":"Southern Dive Center","agency_type":"5 Star Professional Development Center","website":"www.southerndivecenter.com","primary_email":"southerndivecenter@gmail.com","longitude":"-81.787537","latitude":"32.455257","address_1":"2513 Northside Drive West","address_2":"","city_text":"Statesboro","state":"Georgia","country":"United States","post_code":"30458","phone_number":"912-623-2699","zIndex":74,"action":null},"27":{"id":"3583","name":"TDI SDI Serbia","agency_type":"5 Star Professional Development Center","website":"www.tdisdi.rs","primary_email":"veljicsr@gmail.com","longitude":"20.464363","latitude":"44.770931","address_1":"Luja Adamica 26b","address_2":"","city_text":"Beograd","state":"Belgrade","country":"Serbia","post_code":"11000","phone_number":"+38163223632","zIndex":73,"action":null},"28":{"id":"4166","name":"Under the Bridge Scuba","agency_type":"5 Star Professional Development Center","website":"","primary_email":"peter@stuartscuba.com","longitude":"-80.041733","latitude":"26.783545","address_1":"900 Blue Heron Bridge","address_2":"","city_text":"Riviera Beach","state":"Florida","country":"United States","post_code":"33404","phone_number":"321-228-0835","zIndex":72,"action":null},"29":{"id":"4588","name":"Bermuda Triangle, OBX","agency_type":"5 Star Instructor Training Facility","website":"bermudatriangledive.hatteras-island,com","primary_email":"jollymon8361@gmail.com","longitude":"-75.502228","latitude":"35.358547","address_1":"40210 NC Hwy 12","address_2":"","city_text":"Avon","state":"North Carolina","country":"United States","post_code":"27915","phone_number":"252-256-2637","zIndex":71,"action":null},"30":{"id":"4298","name":"Mcfarlands Dive Center","agency_type":"5 Star Instructor Training Facility","website":"","primary_email":"Divingtherapy@gmail.com","longitude":"-89.721741","latitude":"35.410721","address_1":"10021 Old Memphis Rd","address_2":"","city_text":"Atoka","state":"Tennessee","country":"United States","post_code":"38004","phone_number":"901-644-0930","zIndex":70,"action":null},"31":{"id":"1987","name":"Nautical Adventures Scuba","agency_type":"5 Star Instructor Training Facility","website":"www.nauticaladventuresscuba.com","primary_email":"nauticaladventures@att.net","longitude":"-94.914322","latitude":"35.662514","address_1":"PO Box 65","address_2":"","city_text":"Cookson","state":"Oklahoma","country":"United States","post_code":"74427","phone_number":"918-457-3483","zIndex":69,"action":null},"32":{"id":"2190","name":"Omni Divers Underwater Services, L.L.C.","agency_type":"5 Star Instructor Training Facility","website":"www.omnidivers.com","primary_email":"omnidive@gmail.com","longitude":"-122.353424","latitude":"45.582619","address_1":"232 Candy Lane","address_2":"","city_text":"Washougal","state":"Washington","country":"United States","post_code":"98671","phone_number":"360-991-2999","zIndex":68,"action":null},"33":{"id":"2386","name":"Public Safety Dive Services","agency_type":"5 Star Instructor Training Facility","website":"www.psdive.com","primary_email":"bo@psdive.com","longitude":"-108.674660","latitude":"39.076519","address_1":"2013 Par Court","address_2":"","city_text":"Grand Junction","state":"Colorado","country":"United States","post_code":"81507","phone_number":"970 261 1334","zIndex":67,"action":null},"34":{"id":"2401","name":"QC Scuba","agency_type":"5 Star Instructor Training Facility","website":"www.qcscuba.com","primary_email":"info@qcscuba.com","longitude":"-73.508392","latitude":"40.671589","address_1":"3282 Sunrise Highway","address_2":"","city_text":"Wantagh","state":"New York","country":"United States","post_code":"11793","phone_number":"516-826-7222","zIndex":66,"action":null},"35":{"id":"4700","name":"Sea 2 Sea Scuba","agency_type":"5 Star Instructor Training Facility","website":"sea2seascuba.com","primary_email":"scott@sea2seascuba.com","longitude":"-112.011719","latitude":"33.582111","address_1":"3217 E Shea Blvd","address_2":"Suite 5","city_text":"Phoenix","state":"Arizona","country":"United States","post_code":"85028","phone_number":"480-448-5636","zIndex":65,"action":null},"36":{"id":"2878","name":"Sink or Swim Scuba","agency_type":"5 Star Instructor Training Facility","website":"www.sinkorswimscuba.net","primary_email":"dive@sinkorswimscuba.net","longitude":"-81.105003","latitude":"35.256313","address_1":"4310 Wilkinson Blvd., Suite K","address_2":"","city_text":"Gastonia","state":"North Carolina","country":"United States","post_code":"28056","phone_number":"704-823-0501","zIndex":64,"action":null},"37":{"id":"3540","name":"TDI SDI Slovakia","agency_type":"5 Star Instructor Training Facility","website":"www.tdisdi.sk","primary_email":"jana@tdisdi.sk","longitude":"17.133369","latitude":"48.158947","address_1":"L\u00ed\u0161\u010die nivy 462\/21","address_2":"Bratislava","city_text":"Bratislava","state":"NA","country":"Slovakia","post_code":"821 08","phone_number":"+421904557527","zIndex":63,"action":null},"38":{"id":"3228","name":"Timber Bay Sport & Dive Center","agency_type":"5 Star Instructor Training Facility","website":"www.timberbayscuba.com","primary_email":"bill@timberbayscuba.com","longitude":"-89.671196","latitude":"45.922516","address_1":"P.O Box 1249","address_2":"","city_text":"Woodruff","state":"Wisconsin","country":"United States","post_code":"54568","phone_number":"715-358-7529","zIndex":62,"action":null},"39":{"id":"3442","name":"Wazee Sports Center LLC","agency_type":"5 Star Instructor Training Facility","website":"www.wazeesports.com","primary_email":"scuba@wazeesports.com","longitude":"-90.806908","latitude":"44.306030","address_1":"942 Red Iron Road","address_2":"","city_text":"Black River Falls","state":"Wisconsin","country":"United States","post_code":"54615","phone_number":"715-284-5181","zIndex":61,"action":null},"40":{"id":"135","name":"Air Down There SCUBA, Inc.","agency_type":"5 Star Dive Center","website":"www.airdownthere.com","primary_email":"airdownthere@msn.com","longitude":"-93.100075","latitude":"45.025581","address_1":"9 Little Canada Road East","address_2":"","city_text":"St. Paul","state":"Minnesota","country":"United States","post_code":"55117","phone_number":"651-482-0977","zIndex":60,"action":null},"41":{"id":"325","name":"Aquatic Scuba Adventures ","agency_type":"5 Star Dive Center","website":"sheridan-scuba.com","primary_email":"rschmidt101@bresnan.net","longitude":"-106.976044","latitude":"44.803486","address_1":"1363 LaClede St","address_2":"","city_text":"Sheridan","state":"Wyoming","country":"United States","post_code":"82801","phone_number":"307-673-4553","zIndex":59,"action":null},"42":{"id":"4290","name":"Deep Stop Scuba","agency_type":"5 Star Dive Center","website":"www.deepstopscuba.com","primary_email":"Info@Deepstopscuba.com","longitude":"-76.309578","latitude":"43.038929","address_1":"68 West Genesee St","address_2":"","city_text":"Camillus","state":"New York","country":"United States","post_code":"13031","phone_number":"315-378-7175","zIndex":58,"action":null},"43":{"id":"875","name":"Delta Divers","agency_type":"5 Star Dive Center","website":"www.deltadiversok.com","primary_email":"gemini@coxinet.net","longitude":"-97.454987","latitude":"35.458443","address_1":"3101 Tinker Diagonal","address_2":"","city_text":"Del City","state":"Oklahoma","country":"United States","post_code":"73115","phone_number":"405-737-9039","zIndex":57,"action":null},"44":{"id":"919","name":"Dive Addicts","agency_type":"5 Star Dive Center","website":"www.diveaddicts.com","primary_email":"info@diveaddicts.com","longitude":"-111.866806","latitude":"40.525814","address_1":"12356 S. 900 E.  Suite 102","address_2":"","city_text":"Draper","state":"Utah","country":"United States","post_code":"84020","phone_number":"801-572-5111","zIndex":56,"action":null},"45":{"id":"1070","name":"Diver Dan's Scuba and Aquatic Center","agency_type":"5 Star Dive Center","website":"www.diverdan.com","primary_email":"info@diverdan.com","longitude":"-87.845009","latitude":"42.601009","address_1":"3927 - 30th Ave","address_2":"","city_text":"Kenosha","state":"Wisconsin","country":"United States","post_code":"53144","phone_number":"262 652 9399","zIndex":55,"action":null},"46":{"id":"1295","name":"Extreme Sports, Inc.","agency_type":"5 Star Dive Center","website":"extremesportsscuba.com","primary_email":"store@extremesportsscuba.com","longitude":"-94.479088","latitude":"37.031483","address_1":"5203 S. Rangeline Road","address_2":"","city_text":"Joplin","state":"Missouri","country":"United States","post_code":"64804","phone_number":"417-659-9009","zIndex":54,"action":null},"47":{"id":"1325","name":"Finger Lakes Scuba","agency_type":"5 Star Dive Center","website":"www.fingerlakesscuba.com","primary_email":"info@fingerlakesscuba.com","longitude":"-76.567940","latitude":"42.932152","address_1":"11 Dill St.","address_2":"","city_text":"Auburn","state":"New York","country":"United States","post_code":"13021","phone_number":"315-252-8683","zIndex":53,"action":null},"48":{"id":"1421","name":"Gigglin' Marlin Divers, Inc","agency_type":"5 Star Dive Center","website":"www.gigglinmarlin.com","primary_email":"info@gigglinmarlin.com","longitude":"-95.376556","latitude":"29.729322","address_1":"4502 Almeda Road","address_2":"","city_text":"Houston","state":"Texas","country":"United States","post_code":"77004","phone_number":"281-445-DIVE(3483)","zIndex":52,"action":null},"49":{"id":"4054","name":"Like 'da Fish, LLC.","agency_type":"5 Star Dive Center","website":"Like-Da-Fish.com","primary_email":"fbales@like-da-fish.com","longitude":"-75.573372","latitude":"41.608131","address_1":"172 Poor Farm Road ","address_2":"","city_text":"Greenfield Township","state":"Pennsylvania","country":"United States","post_code":"18407","phone_number":"570-499-1911","zIndex":51,"action":null},"50":{"id":"112","name":"Motor City Scuba and Snorkel","agency_type":"5 Star Dive Center","website":"www.MotorCityScuba.com","primary_email":"dive@motorcityscuba.com","longitude":"-83.441032","latitude":"42.473057","address_1":"40001 Grand River Ave","address_2":"","city_text":"Novi","state":"Michigan","country":"United States","post_code":"48375","phone_number":"248 615-3483","zIndex":50,"action":null},"51":{"id":"4935","name":"Mountains to the Seas Scuba and Travel","agency_type":"5 Star Dive Center","website":"mtnstotheseasscuba.com","primary_email":"mike.mtn2seas@gmail.com","longitude":"-82.613289","latitude":"35.519108","address_1":"95 Morris Rd","address_2":"","city_text":"Asheville","state":"North Carolina","country":"United States","post_code":"28806","phone_number":"828 633 6625","zIndex":49,"action":null},"52":{"id":"2027","name":"New England Diving of CT","agency_type":"5 Star Dive Center","website":"www.newenglanddive.com","primary_email":"info@newenglanddive.com","longitude":"-72.834564","latitude":"41.432682","address_1":"1060 South Colony Road","address_2":"","city_text":"Wallingford","state":"Connecticut","country":"United States","post_code":"06492","phone_number":"203 284-1880","zIndex":48,"action":null},"53":{"id":"2237","name":"Pamlico Divers","agency_type":"5 Star Dive Center","website":"www.pamlicodivers.com","primary_email":"pamlicodivers@hotmail.com","longitude":"-77.365967","latitude":"35.649277","address_1":"2225 Carolina Leaf Rd","address_2":"","city_text":"Greenville","state":"North Carolina","country":"United States","post_code":"27834","phone_number":"252 945 3725","zIndex":47,"action":null},"54":{"id":"4207","name":"Salisbury Scuba","agency_type":"5 Star Dive Center","website":"www.Salisburyscuba.com","primary_email":"instructor@salisburyscuba.com","longitude":"-80.453316","latitude":"35.614124","address_1":"628 Mulberry Lane","address_2":"","city_text":"Salisbury","state":"North Carolina","country":"United States","post_code":"28146","phone_number":"704-209-2209","zIndex":46,"action":null},"55":{"id":"4527","name":"Technical Diving Colombia","agency_type":"5 Star Dive Center","website":"www.technicaldivingcolombia.com","primary_email":"info@technicaldivingcolombia.com","longitude":"-74.072090","latitude":"4.710989","address_1":"Calle 20 82-52 Ofc 3-29","address_2":"Centro Empresarial Hayuelos","city_text":"Bogota","state":"Distrito Capital","country":"Colombia","post_code":"110931","phone_number":"+57 (316) 243-9708","zIndex":45,"action":null},"56":{"id":"4811","name":"The Scuba School LLC","agency_type":"5 Star Dive Center","website":"www.thescubaschool.com","primary_email":"CapnGlen@thescubaschool.com","longitude":"-92.744423","latitude":"35.152000","address_1":"116 E Railroad Ave","address_2":"","city_text":"Morrilton","state":"Arkansas","country":"United States","post_code":"72110","phone_number":"501-289-6500","zIndex":44,"action":null},"57":{"id":"3382","name":"US Water Rescue \/ MT Dive Tech","agency_type":"5 Star Dive Center","website":"www.uswaterrescue.com","primary_email":"info@uswaterrescue.com","longitude":"-108.500687","latitude":"45.783287","address_1":"123 N 15th St","address_2":"","city_text":"Billings","state":"Montana","country":"United States","post_code":"59101","phone_number":"(406) 591-4649","zIndex":43,"action":null},"58":{"id":"4085","name":"Anacortes Diving & Supply, Inc.","agency_type":"Dive Center","website":"www.anacortesdiving.com","primary_email":"info@anacortesdiving.com","longitude":"-122.613045","latitude":"48.501884","address_1":"2502 Commercial Ave. ","address_2":"","city_text":"Anacortes","state":"Washington","country":"United States","post_code":"98221","phone_number":"360-293-2070","zIndex":42,"action":null},"59":{"id":"347","name":"Arizona Offshore Scuba","agency_type":"Dive Center","website":"","primary_email":"chuckherman@cox.net","longitude":"-111.758644","latitude":"33.316196","address_1":"1895 South Boulder Ct","address_2":"","city_text":"Gilbert","state":"Arizona","country":"United States","post_code":"85295","phone_number":"602 882-5107","zIndex":41,"action":null},"60":{"id":"4101","name":"Blackbeard Scuba","agency_type":"Dive Center","website":"www.blackbeardscuba.com","primary_email":"blackbeardscuba@gmail.com","longitude":"-78.061508","latitude":"33.922386","address_1":"5001 O'Quinn Blvd","address_2":"","city_text":"Southport","state":"North Carolina","country":"United States","post_code":"28461","phone_number":"910-465-1902","zIndex":40,"action":null},"61":{"id":"536","name":"Blue Water Divers, NJ","agency_type":"Dive Center","website":"www.bluewaterdivers.com","primary_email":"info@bluewaterdivers.com","longitude":"-74.072258","latitude":"40.894852","address_1":"201 Route 17 S","address_2":"","city_text":"Rochelle Park","state":"New Jersey","country":"United States","post_code":"07662","phone_number":"201 843 3340","zIndex":39,"action":null},"62":{"id":"867","name":"Bolsen Marine Systems Pte Ltd","agency_type":"Dive Center","website":"www.bolsenmarine.com","primary_email":"simon@bolsenmarine.com","longitude":"103.874313","latitude":"1.326852","address_1":"8 Kaki Bukit Avenue 4","address_2":"#02-40, Premier @ Kaki Bukit","city_text":"Singapore","state":"Singapore","country":"Singapore","post_code":"415875","phone_number":"+65 65450801","zIndex":38,"action":null},"63":{"id":"4613","name":"Connecticut Scuba Academy","agency_type":"Dive Center","website":"www.CTscuba.com","primary_email":"tom@ctscuba.com","longitude":"-72.915489","latitude":"41.401821","address_1":"805 Sherman Avenue","address_2":"","city_text":"Hamden","state":"Connecticut","country":"United States","post_code":"06514","phone_number":"203-806-0027","zIndex":37,"action":null},"64":{"id":"3559","name":"Coral Edge Adventures","agency_type":"Dive Center","website":"www.coraledgeadventures.com","primary_email":"info@coraledgeadventures.com","longitude":"-77.569107","latitude":"38.853996","address_1":"4657 Sudley Rd.","address_2":"","city_text":"Catharpin","state":"Virginia","country":"United States","post_code":"20143","phone_number":"703-753-1127","zIndex":36,"action":null},"65":{"id":"4200","name":"Cylinder Training Services","agency_type":"Dive Center","website":"www.cylindertrainingservices.com","primary_email":"don@cylindertrainingservices.com","longitude":"-122.354332","latitude":"47.804569","address_1":"21417 90th Ave West","address_2":"","city_text":"Edmonds","state":"Washington","country":"United States","post_code":"98026","phone_number":"206-601-8993","zIndex":35,"action":null},"66":{"id":"852","name":"Deep South Scuba","agency_type":"Dive Center","website":"www.deepsouthscuba.net","primary_email":"deepsouthscuba@att.net","longitude":"-90.136627","latitude":"32.399769","address_1":"1060 E. County Line Road ","address_2":"Suite 11","city_text":"Ridgeland","state":"Mississippi","country":"United States","post_code":"39157","phone_number":"601-957-3483","zIndex":34,"action":null},"67":{"id":"4686","name":"Dive2Life","agency_type":"Dive Center","website":"dichtl.it & dive2life.de","primary_email":"marcel@dichtl.it","longitude":"11.793394","latitude":"48.407829","address_1":"Angerweg 3","address_2":"","city_text":"Marzling","state":"Bayern","country":"Germany","post_code":"DE 85417","phone_number":"00000","zIndex":33,"action":null},"68":{"id":"1247","name":"Elite Divers","agency_type":"Dive Center","website":"www.elitedivers.com","primary_email":"eliteadmin@elitedivers.com","longitude":"-74.529938","latitude":"40.886494","address_1":"81 Route 10 East","address_2":"","city_text":"Randolph","state":"New Jersey","country":"United States","post_code":"07869","phone_number":"973-586-2214","zIndex":32,"action":null},"69":{"id":"1335","name":"Fitz's Dive Shop Ltd","agency_type":"Dive Center","website":"www.fitzsdiveshop.com","primary_email":"fitz.robert614@yahoo.com","longitude":"-90.229149","latitude":"39.736076","address_1":"205 B. West State Street","address_2":"","city_text":"Jacksonville","state":"Illinois","country":"United States","post_code":"62650","phone_number":"217 473 7706","zIndex":31,"action":null},"70":{"id":"1579","name":"Indian Valley Scuba","agency_type":"Dive Center","website":"www.indianvalleyscuba.com","primary_email":"info@indianvalleyscuba.com","longitude":"-75.382973","latitude":"40.290993","address_1":"601 Yoder Rd","address_2":"","city_text":"Harleysville","state":"Pennsylvania","country":"United States","post_code":"19438","phone_number":"215-256-6000","zIndex":30,"action":null},"71":{"id":"4991","name":"Indonesian Marine Police","agency_type":"Dive Center","website":"polair.polri.go.id\/","primary_email":"imp.erdi1950@gmail.com","longitude":"106.868568","latitude":"-6.113815","address_1":"JL. R.E. Martadinata I \/ 1 Tanjung Priok","address_2":"","city_text":"North Jakarta","state":"Jakarta Raya","country":"Indonesia","post_code":"14310","phone_number":"+628126375336","zIndex":29,"action":null},"72":{"id":"1712","name":"Infinity Scuba","agency_type":"Dive Center","website":"www.facebook.com\/lmscuba","primary_email":"divemaster13@gmail.com","longitude":"-114.568268","latitude":"35.150345","address_1":"4165 N Bank St Ste A","address_2":"","city_text":"Kingman","state":"Arizona","country":"United States","post_code":"86401","phone_number":"928-225-0629","zIndex":28,"action":null},"73":{"id":"3650","name":"International Diving Institute LLC.","agency_type":"Dive Center","website":"www.ididiver.com","primary_email":"joe.myers@ididiver.com","longitude":"-79.959671","latitude":"32.858986","address_1":"1400 Pierside Str. Bldg 190 Ste. C","address_2":"","city_text":"North Charleston","state":"South Carolina","country":"United States","post_code":"29405","phone_number":"843-740-1124","zIndex":27,"action":null},"74":{"id":"1782","name":"Louisville Dive Center","agency_type":"Dive Center","website":"LouisvilleDiveCenter.com","primary_email":"searayldc@gmail.com","longitude":"-85.718460","latitude":"38.190525","address_1":"4265 Roosevelt Avenue","address_2":"","city_text":"Louisville","state":"Kentucky","country":"United States","post_code":"40213","phone_number":"502-368-8427","zIndex":26,"action":null},"75":{"id":"3743","name":"LP Scuba","agency_type":"Dive Center","website":"www.lpscuba.com","primary_email":"chad@lpscuba.com","longitude":"-112.107468","latitude":"33.696442","address_1":"2222 W. Parkside Lane","address_2":"Ste 107","city_text":"Phoenix","state":"Arizona","country":"United States","post_code":"85027","phone_number":"623-512-4735","zIndex":25,"action":null},"76":{"id":"4223","name":"Midwest School of Diving","agency_type":"Dive Center","website":"mwschoolofdiving.com\/","primary_email":"Mark@mwschoolofdiving.com","longitude":"-93.043144","latitude":"45.079163","address_1":"5960 Highway 61 N","address_2":"Suite 2","city_text":"White Bear Lake","state":"Minnesota","country":"United States","post_code":"55110","phone_number":"651-653-1174","zIndex":24,"action":null},"77":{"id":"4870","name":"Moby's Dive Shop, Inc","agency_type":"Dive Center","website":"www.mobysdive.com","primary_email":"amm.moby@gmail.com","longitude":"-85.579124","latitude":"43.059105","address_1":"5300-B Northland Dr NE","address_2":"","city_text":"Grand Rapids","state":"Michigan","country":"United States","post_code":"49525","phone_number":"616-364-5991","zIndex":23,"action":null},"78":{"id":"4494","name":"Northeast Public Safety Divers","agency_type":"Dive Center","website":"NortheastPSD.com","primary_email":"northeastpsd@gmail.com","longitude":"-74.266464","latitude":"41.016682","address_1":"43 Acorn St.","address_2":"","city_text":"Oakland","state":"New Jersey","country":"United States","post_code":"07436","phone_number":"201-888-8656","zIndex":22,"action":null},"79":{"id":"2191","name":"Omni Scuba","agency_type":"Dive Center","website":"www.omniscuba.net","primary_email":"omni@mchsi.com","longitude":"-88.910080","latitude":"39.016228","address_1":"RR 2 Box 14","address_2":"","city_text":"Effingham","state":"Illinois","country":"United States","post_code":"62458","phone_number":"618 829 3483","zIndex":21,"action":null},"80":{"id":"4275","name":"PE SCUBA","agency_type":"Dive Center","website":"www.pescuba.com.br","primary_email":"josualdomoura@hotmail.com","longitude":"-35.001347","latitude":"-8.506447","address_1":"Rua dos Navegantes 36","address_2":"Porto de Galinhas","city_text":"Ipojuca","state":"Pernambuco","country":"Brazil","post_code":"55590-000","phone_number":"5581 999692370","zIndex":20,"action":null},"81":{"id":"4892","name":"Phoenix Scuba & Water Sports Inc.","agency_type":"Dive Center","website":"phoenixscuba.com","primary_email":"mail@phoenixscuba.com","longitude":"-78.828667","latitude":"42.825527","address_1":"619 Ridge Rd.","address_2":"","city_text":"Lackawanna","state":"New York","country":"United States","post_code":"14218","phone_number":"716-822-2816","zIndex":19,"action":null},"82":{"id":"2369","name":"Professional Divers","agency_type":"Dive Center","website":"www.professionaldiversinc.com","primary_email":"prodiversnj@gmail.com","longitude":"-74.026657","latitude":"40.209599","address_1":"13 State Hwy 35 S","address_2":"","city_text":"Neptune City","state":"New Jersey","country":"United States","post_code":"07753","phone_number":"732-775-8292","zIndex":18,"action":null},"83":{"id":"2381","name":"ProTech Scuba, LLC","agency_type":"Dive Center","website":"www.protechscuba.com","primary_email":"divemexico@protechscuba.com","longitude":"-110.295464","latitude":"31.554604","address_1":"999 East Fry Blvd. ","address_2":"St 203","city_text":"Sierra Vista","state":"Arizona","country":"United States","post_code":"85635","phone_number":"520-508-3483","zIndex":17,"action":null},"84":{"id":"1167","name":"Public Safety Instructor Group","agency_type":"Dive Center","website":"www.publicsafetyinstgroup.com","primary_email":"psig@publicsafetyinstgroup.com","longitude":"-78.740196","latitude":"35.506989","address_1":"275 James Norris Rd","address_2":"","city_text":"Angier","state":"North Carolina","country":"United States","post_code":"27501","phone_number":"919-255-0552","zIndex":16,"action":null},"85":{"id":"3754","name":"Sarge's Dive Shop","agency_type":"Dive Center","website":"www.sarges.net","primary_email":"mark@sarges.net","longitude":"-80.859100","latitude":"38.202675","address_1":"1706 Airport Road","address_2":"","city_text":"Summersville","state":"West Virginia","country":"United States","post_code":"26651","phone_number":"304-872-1782","zIndex":15,"action":null},"86":{"id":"4410","name":"Scuba Connecticut","agency_type":"Dive Center","website":"www.scubaconn.com","primary_email":"captsteve@scubaconn.com","longitude":"-72.509148","latitude":"41.272339","address_1":"29 Circle Beach Road ","address_2":"","city_text":"Madison","state":"Connecticut","country":"United States","post_code":"06443 ","phone_number":"203-952-8679 ","zIndex":14,"action":null},"87":{"id":"2654","name":"Scuba New York - Westchester","agency_type":"Dive Center","website":"www.scubanewyork.com","primary_email":"info@scubanewyork.com","longitude":"-73.837257","latitude":"40.968475","address_1":"2037 Central Park Ave","address_2":"","city_text":"Westchester","state":"New York","country":"United States","post_code":"10710","phone_number":"914-779-2966","zIndex":13,"action":null},"88":{"id":"4994","name":"Scubatec Academy","agency_type":"Dive Center","website":"","primary_email":"scubatecacademy@gmail.com","longitude":"106.973068","latitude":"-6.270336","address_1":"Grand Galaxy Park Rukan Rose Garden Blok RRG 1 No 012","address_2":"","city_text":"Bekasi","state":"Jawa Barat - West Java","country":"Indonesia","post_code":"17147","phone_number":"+628119115911","zIndex":12,"action":null},"89":{"id":"2871","name":"Silent World Diving Systems","agency_type":"Dive Center","website":"www.silent-world.com","primary_email":"info@silent-world.com","longitude":"-122.159996","latitude":"47.627796","address_1":"1910 - 132nd Ave NE","address_2":"Suite B-11","city_text":"Bellevue","state":"Washington","country":"United States","post_code":"98005","phone_number":"425 747-8842","zIndex":11,"action":null},"90":{"id":"4676","name":"Smoky Mountain Scuba","agency_type":"Dive Center","website":"www.smokymountainscuba.com","primary_email":"andy@smokymountainscuba.com","longitude":"-83.753944","latitude":"35.344154","address_1":"88 Liberty Lane","address_2":"","city_text":"Robbinsville","state":"North Carolina","country":"United States","post_code":"28771","phone_number":"828-735-0408","zIndex":10,"action":null},"91":{"id":"2918","name":"Southern Skin Divers Supply","agency_type":"Dive Center","website":"www.ssdsupply.com","primary_email":"ssdsupply@aol.com","longitude":"-86.763649","latitude":"33.526299","address_1":"4515 5th Ave South","address_2":"","city_text":"Birmingham","state":"Alabama","country":"United States","post_code":"35222","phone_number":"205-595-3052","zIndex":9,"action":null},"92":{"id":"3869","name":"SUBAQUASPORT","agency_type":"Dive Center","website":"www.subaquasport.com","primary_email":"mihai@subaquasport.com","longitude":"26.062201","latitude":"44.255600","address_1":"STR.TH. SPERANTIA 130, BL 78, AP 24, BUCHAREST","address_2":"","city_text":"Bucharest","state":"Bucharest","country":"Romania","post_code":"030933","phone_number":"+40744193882","zIndex":8,"action":null},"93":{"id":"3960","name":"TDI\/SDI\/ERDI Slovenia","agency_type":"Dive Center","website":"www.cpa.si","primary_email":"gasper.kosir@cpa.si","longitude":"14.511217","latitude":"46.090454","address_1":"Dec\u008dmanova 3","address_2":"","city_text":"Ljubljana","state":"Osrednjeslovenska","country":"Slovenia","post_code":"1000","phone_number":" +386 41 323 483","zIndex":7,"action":null},"94":{"id":"4524","name":"Texas Dive Center","agency_type":"Dive Center","website":"www.texasdivecenterinc.com","primary_email":"manager@texasdivecenterinc.com","longitude":"-101.924110","latitude":"33.561489","address_1":"3602 Slide Rd STE B34","address_2":"","city_text":"Lubbock","state":"Texas","country":"United States","post_code":"79414","phone_number":"8067910567","zIndex":6,"action":null},"95":{"id":"3164","name":"The Dive Shop on McEver","agency_type":"Dive Center","website":"www.thediveshoponmcever.com","primary_email":"scuba@thediveshoponmcever.com","longitude":"-83.886147","latitude":"34.265835","address_1":"3560 McEver Rd, Ste. D","address_2":"","city_text":"Gainesville","state":"Georgia","country":"United States","post_code":"30504","phone_number":"770-503-0040","zIndex":5,"action":null},"96":{"id":"3236","name":"Todd's Scuba Sales","agency_type":"Dive Center","website":"www.divecircleville.com","primary_email":"todd@divecircleville.com","longitude":"-82.950272","latitude":"39.563801","address_1":"1182 Island Rd.","address_2":"","city_text":"Circleville","state":"Ohio","country":"United States","post_code":"43113","phone_number":"740-474-1558","zIndex":4,"action":null},"97":{"id":"4128","name":"Trilogy HSE","agency_type":"Dive Center","website":"www.trilogyhse.com","primary_email":"training@trilogyhse.com","longitude":"-82.460632","latitude":"27.947489","address_1":"7010 Adamo Drive","address_2":"Suite C7","city_text":"Tampa","state":"Florida","country":"United States","post_code":"33619","phone_number":"813-567-1099","zIndex":3,"action":null},"98":{"id":"4041","name":"VZS Plzen","agency_type":"Dive Center","website":"www.vzs-plzen.cz","primary_email":"obelica@seznam.cz","longitude":"13.371626","latitude":"49.726357","address_1":"Dvorakova 29","address_2":"","city_text":"Plzen","state":"Plze\u0148sk\u00fd Kraj","country":"Czech Republic","post_code":"320 07","phone_number":"+420 737 336 516","zIndex":2,"action":null},"99":{"id":"3434","name":"Waterdog Scuba Dive Shop","agency_type":"Dive Center","website":"www.facebook.com\/Waterdogscuba\/","primary_email":"Insertjunkmailhere@yahoo.com","longitude":"-82.625366","latitude":"31.872601","address_1":"601 Brunswick Ave.","address_2":"","city_text":"Waycross","state":"Georgia","country":"United States","post_code":"31501","phone_number":"912 218-4553","zIndex":1,"action":null}}
